[
  {
    "idStore": "1",
    "name": "IMPULSORA LIBRO CLUB",
    "address": "Río Bravo núm. 9836, Col. Revolución, 2201, Tijuana, B. C.",
    "phoneA": "(664) 686-28-80",
    "phoneB": "",
    "website": "www.libroclub.com",
    "emailA": "ventas@libroclub.com",
    "emailB": "",
    "geoState": "2",
    "latitud": "32.5204762",
    "longitud":"-117.01971430000003"
  },
  {
    "idStore": "2",
    "name": "LIBRERÍA DE MEXICO DEL NOROESTE S. DE R.L. DE C.V.",
    "address": "Av. Paseo de los Héroes núm. 95, Local B 20-A, Centro Comercial Plaza Río, 22425, Tijuana, B. C.",
    "phoneA": "(664) 634-16-54",
    "phoneB": "",
    "website": "",
    "emailA": "libreriasdemexico@yahoo.com.mx",
    "emailB": "",
    "geoState": "2",
    "latitud": "32.4816744",
    "longitud":"-116.9505456"
  },
  {
    "idStore": "3",
    "name": "SOLUCIÓN EDUCATIVA",
    "address": "Juan Escutia núm. 501, Col. Prohogar, 21240, Mexicali, B.C.",
    "phoneA": "(686) 566-73-33 ",
    "phoneB": "(664) 608-07-18",
    "website": "",
    "emailA": "solucioneducativa@prodigy.net.mx",
    "emailB": "",
    "geoState": "2",
    "latitud": "32.6485714",
    "longitud":"-115.439911"
  },
  {
    "idStore": "4",
    "name": "PUBLICACIONES LAHESA",
    "address": "Manuel Doblado S/N, Col. 5 de Febrero, 23400, San José del Cabo, B. C. S.",
    "phoneA": "(624) 142-10-18",
    "phoneB": "",
    "website": "",
    "emailA": "maganaloscabos@hotmail.com ",
    "emailB": "",
    "geoState": "3",
    "latitud": "23.0598671",
    "longitud":"-109.70342979999998"
  },
  {
    "idStore": "5",
    "name": "DISTRIBUIDORA TIERRA Y VENADO",
    "address": "Calle 12 núm. 38. entre 13 y 15, Col. Samula, 24090, San Francisco de Campeche, Camp.",
    "phoneA": "(916) 348-08-70",
    "phoneB": "",
    "website": "",
    "emailA": "artestyv@hotmail.com",
    "emailB": "",
    "geoState": "4",
    "latitud": "19.8153097",
    "longitud":"-90.5504745"
  },
  {
    "idStore": "6",
    "name": "DINALI",
    "address": "2 Av. Sur Oriente núm. 342, Col. Estrada, 29017, Tuxtla Gutiérrez, Chis.",
    "phoneA": "(961) 656-68-25",
    "phoneB": "",
    "website": "",
    "emailA": "letrep24@hotmail.com",
    "emailB": "dinali-chiapas@hitmail.com",
    "geoState": "5",
    "latitud": "16.7812076",
    "longitud":"-93.10244460000001"
  },
  {
    "idStore": "7",
    "name": "DISTRIBUIDORA TIERRA Y VENADO ",
    "address": "Prolongación 12 de Octubre S/N, Fracc. Tulija, 29960, Palenque, Chis.",
    "phoneA": "(916) 345-06-73 ",
    "phoneB": "(916) 348-08-70",
    "website": "",
    "emailA": "artestyv@hotmail.com",
    "emailB": "",
    "geoState": "5",
    "latitud": "17.5092802",
    "longitud":"-91.9923685"
  },
  {
    "idStore": "8",
    "name": "BODEGA DE LIBROS S.A. DE C.V.",
    "address": "Av. Deza y Ulloa núm. 604, Col. San Felipe, 31203, Chihuahua, Chih.",
    "phoneA": "(614) 414-7212",
    "phoneB": "",
    "website": "",
    "emailA": "bodegadl@prodigy.net.mx",
    "emailB": "",
    "geoState": "6",
    "latitud": "28.6417743",
    "longitud":"-106.08712450000002"
  },
  {
    "idStore": "9",
    "name": "LUIS GUERRERO GASPAR",
    "address": "Santo Tomás núm. 1009, Col. Periodista, 32178, Cd. Juárez, Chih.",
    "phoneA": "(656) 301-36-72",
    "phoneB": "",
    "website": "",
    "emailA": "libroles@hotmail.com",
    "emailB": "",
    "geoState": "6",
    "latitud": "31.7426557",
    "longitud":"-106.52035639999997"
  },
  {
    "idStore": "10",
    "name": "OLINOR DISTRIBUIDORA DE LIBROS S.A. DE C.V.",
    "address": "Av. Pascual Orozco núm. 701, Col.Parques de San Felipe, 31203, Chihuahua, Chih.",
    "phoneA": "(614) 414-48-88",
    "phoneB": "",
    "website": "www.olinor.com",
    "emailA": "olinor@olinor.com",
    "emailB": "",
    "geoState": "6",
    "latitud": "28.652981",
    "longitud":"-106.0915776"
  },
  {
    "idStore": "11",
    "name": "BODELI OSNAYA",
    "address": "Carretera Federal a Cuernavaca núm. 5595, Col. San Pedro Mártir, Tlalpan, 14650 México, D.F.",
    "phoneA": "(55) 55-73-05-89",
    "phoneB": "(55) 56-55-41-95",
    "website": "www.bodeli.com.mx",
    "emailA": "info@bodeli.com.mx",
    "emailB": "store@bodeli.com.mx",
    "geoState": "9",
    "latitud": "19.2676235",
    "longitud":"-99.17079319999999"
  },
  {
    "idStore": "12",
    "name": "BOOKS 2 GO",
    "address": "Av. Popocatépetl, núm. 415 Local 28, Col. Santa Cruz Atoyac,Benito Juárez, 03310,\u2028México, D.F.",
    "phoneA": "(55) 47-37-77-50",
    "phoneB": "",
    "website": "www.books2go.com.mx",
    "emailA": "mdelatorre@books2go.com.mx",
    "emailB": "",
    "geoState": "9",
    "latitud": "19.3672839",
    "longitud":"-99.16286350000001"
  },
  {
    "idStore": "13",
    "name": "CASA DEL LIBRO",
    "address": "Barranca del Muerto núm. 40, Col Florida, Álvaro Obregón, 01030, México, D.F.",
    "phoneA": "(55) 56-62-52-17",
    "phoneB": "(55) 56-62-52-18",
    "website": "www.casadelibro.com.mx",
    "emailA": "ventas@casadelibro.com.mx",
    "emailB": "",
    "geoState": "9",
    "latitud": "19.3641094",
    "longitud":"-99.1786586"
  },
  {
    "idStore": "14",
    "name": "DELTI SAN ANTONIO",
    "address": "Av. Prolongación San Antonio núm. 170, Col. Carola, 01180, Álvaro Obregón México, D.F.",
    "phoneA": "(55) 36-86-20-00",
    "phoneB": "",
    "website": "www.delti.com.mx",
    "emailA": "ggonzalez@delti.com.mx",
    "emailB": "",
    "geoState": "9",
    "latitud": "19.3835132",
    "longitud":"-99.19656379999998"
  },
  {
    "idStore": "15",
    "name": "DELTI ANTONIO CASO",
    "address": "Antonio Caso núm. 127 Col. San Rafael, 07470, Cuauhtémoc México, D.F.",
    "phoneA": "(55) 55-46-88-20",
    "phoneB": "",
    "website": "www.delti.com.mx",
    "emailA": "psolis@delti.com.mx",
    "emailB": "",
    "geoState": "9",
    "latitud": "19.4354116",
    "longitud":"-99.16365789999998"
  },
  {
    "idStore": "16",
    "name": "DILSE",
    "address": "V. Gómez Farías núm. 38, Col. Bejero, 01340, Álvaro Obregón México, D.F.",
    "phoneA": "(55) 52-57-31-00",
    "phoneB": "(55) 21-67-18-74",
    "website": "",
    "emailA": "gjimenez@dilse.com.mx",
    "emailB": "",
    "geoState": "9",
    "latitud": "19.3803335",
    "longitud":"-99.24650029999998"
  },
  {
    "idStore": "17",
    "name": "DISTRIBUIDORA GUIMAR",
    "address": "Cto. Río Zitácuaro núm. 49, Col. Paseos de Churubusco, Iztapalapa, 09030, México, D. F.",
    "phoneA": "(55) 56-54-74-09",
    "phoneB": "",
    "website": "",
    "emailA": "gsuarez70@hotmail.com",
    "emailB": "",
    "geoState": "9",
    "latitud": "19.3871686",
    "longitud":"-99.08613919999999"
  },
  {
    "idStore": "18",
    "name": "ENGLISH TEXTBOOKS",
    "address": "Gabino Barreda núm. 132, Col. San Rafael, 06470 , Cuauhtémoc, México, D.F.",
    "phoneA": "(55) 55-46-10-51",
    "phoneB": "(55) 67-23-97-51",
    "website": "",
    "emailA": "gb@etb-elt.com",
    "emailB": "",
    "geoState": "9",
    "latitud": "19.4350778",
    "longitud":"-99.16455869999999"
  },
  {
    "idStore": "19",
    "name": "LEARNING TIME",
    "address": "Carretera México - Toluca núm. 2853, Col. Campestre Palo Alto,05110, Cuajimalpa, México, D.F.",
    "phoneA": "(55) 21-63-53-92",
    "phoneB": "(55) 21-63-53-41",
    "website": "",
    "emailA": "clientes@learningtime.com.mx",
    "emailB": "",
    "geoState": "9",
    "latitud": "19.3789605",
    "longitud":"-99.25787439999999"
  },
  {
    "idStore": "20",
    "name": "MATERIAL PEDAGÓGICO",
    "address": "Luis Gónzalez Obregón núm. 9, Col. Centro, 06020, Cuauhtémoc, México, D.F.",
    "phoneA": "(55) 91-40-65-00",
    "phoneB": "",
    "website": "www.mplibros.com.mx",
    "emailA": "pedidos@mplibros.com.mx",
    "emailB": "o.nava@mplibros.com.mx",
    "geoState": "9",
    "latitud": "19.4367718",
    "longitud":"-99.13318959999998"
  },
  {
    "idStore": "21",
    "name": "MEETING POINT BOOK SHOP",
    "address": "Av. Canal de Miramontes núm. 2640 Local-G, Col. Avante, 04460, Coyoacán, México, D.F.",
    "phoneA": "(55) 56-84- 72-61",
    "phoneB": "",
    "website": "",
    "emailA": "mpbcompras@meetingpoint.com.mx",
    "emailB": "servicioaclientes@meetingpoint.com.mx",
    "geoState": "9",
    "latitud": "19.3288318",
    "longitud":"-99.13316309999999"
  },
  {
    "idStore": "22",
    "name": "OFICINAS DE LIBRERÍA PORRÚA ",
    "address": "República de Argentina núm. 17, Col. Centro, 06020, Cuauhtémoc, México, D.F.",
    "phoneA": "(55) 57-04-75-00",
    "phoneB": "",
    "website": "www.porrua.mx",
    "emailA": "",
    "emailB": "",
    "geoState": "9",
    "latitud": "19.4359409",
    "longitud":"-99.13167320000002"
  },
  {
    "idStore": "23",
    "name": "DISTRIBUIDORA DE LIBROS DALUMA",
    "address": "Donato Guerra núm. 445 Sur, Col. Centro, 35150 Lerdo, Dgo.",
    "phoneA": "(871) 455-56-38",
    "phoneB": "(871) 234-84-12",
    "website": "",
    "emailA": "malberto_urrutia@hotmail.com",
    "emailB": "",
    "geoState": "10",
    "latitud": "25.533476",
    "longitud":"-103.53086289999999"
  },
  {
    "idStore": "24",
    "name": "DITEXBA",
    "address": "Litio núm. 109, Col. Piletas, 37310, León, Gto",
    "phoneA": "(477) 758-21-82",
    "phoneB": "01-800-836-76-56",
    "website": "www.ditexba.com.mx",
    "emailA": "ventas@ditexba.com.mx",
    "emailB": "",
    "geoState": "11",
    "latitud": "21.1399",
    "longitud":"-101.7050858"
  },
  {
    "idStore": "25",
    "name": "LIBRERÍA EL TERCER MILENIO S.A. DE C.V.",
    "address": "Benito Juárez núm. 436 PB, Col. Centro, 38000, Celaya, Gto. ",
    "phoneA": "(461) 612-55-37",
    "phoneB": "(461) 616-26-38",
    "website": "",
    "emailA": "libelli.mitzi@hotmail.com",
    "emailB": "",
    "geoState": "11",
    "latitud": "20.5203446",
    "longitud":"-100.81552010000001"
  },
  {
    "idStore": "26",
    "name": "MARÍA DE LA LUZ ALICIA AGUILAR TORRES",
    "address": "Río Suchiate núm. 1626, Col. La Pradera, 36630, Irapuato, Gto.",
    "phoneA": "(462) 600-13-95",
    "phoneB": "",
    "website": "",
    "emailA": "karcava@hotmail.com",
    "emailB": "",
    "geoState": "11",
    "latitud": "20.6898905",
    "longitud":"-101.32369649999998"
  },
  {
    "idStore": "27",
    "name": "LIBRERÍA VAQUITA",
    "address": "Cuauhtémoc núm. 33-A, Col. Centro, 40890, Zihuatanejo, Gro.",
    "phoneA": "(755) 554-14-93",
    "phoneB": "(755) 558-89-97",
    "website": "",
    "emailA": "vaquitazihua@hotmail.com",
    "emailB": "irmarr_77@hotmail.com",
    "geoState": "12",
    "latitud": "17.6384976",
    "longitud":"-101.55788569999999"
  },
  {
    "idStore": "28",
    "name": "ALLBOOKS LIBRERÍA",
    "address": "Av. Aviacion núm. 5051-6, Condominio City Park, Col. San Juan de Ocotán, 45019, Zapopan, Jal.",
    "phoneA": "(331) 201-11-50",
    "phoneB": "(333) 627-73-56",
    "website": "www.allbooks.com.mx",
    "emailA": "charlemos@allbooks.com.mx",
    "emailB": "",
    "geoState": "14",
    "latitud": "20.7069491",
    "longitud":"-103.45406689999999"
  },
  {
    "idStore": "29",
    "name": "LIBRERÍA ESCOLAR",
    "address": "Calle 9 núm. 250, Col. Ferrocarril, 44440, Guadalajara, Jal.",
    "phoneA": "(333) 614-17-70",
    "phoneB": "(333) 613-37-51",
    "website": "libreriaescolargdl.mx",
    "emailA": "libreriaescolargdl@live.com.mx",
    "emailB": "",
    "geoState": "14",
    "latitud": "20.6437583",
    "longitud":"-103.34888710000001"
  },
  {
    "idStore": "30",
    "name": "LIBRERÍAS GONVILL S.A. DE C.V.",
    "address": "Av. 8 de Julio núm. 825, Col. Moderna, 44190, Guadalajara, Jal. ",
    "phoneA": "(33) 3837-23-00",
    "phoneB": "(33) 3837-23-09",
    "website": "www.gonvill.com.mx",
    "emailA": "librosbooks@gonvill.com.mx",
    "emailB": "",
    "geoState": "14",
    "latitud": "20.6647785",
    "longitud":"-103.35393520000002"
  },
  {
    "idStore": "31",
    "name": "DELTI NEZA",
    "address": "Av. Chimalhuacán núm. 349-A esq. con Zandunga, Col. Benito Juárez, 57000, Ciudad Nezahualcóyotl, Edo. de Méx.",
    "phoneA": "(55) 22-32-73-66",
    "phoneB": "",
    "website": "www.delti.com.mx",
    "emailA": "shernandez@delti.com.mx ",
    "emailB": "",
    "geoState": "15",
    "latitud": "19.4062602",
    "longitud":"-99.015537"
  },
  {
    "idStore": "32",
    "name": "DELTI IZCALLI ",
    "address": "Av. 1o de Mayo Mz. C núm. 24-B Locales 269 y 271, Col. Centro, 54740, Cuautitlán Izcalli, Edo. de Méx.",
    "phoneA": "(55) 58-81-17-98",
    "phoneB": "",
    "website": "www.delti.com.mx",
    "emailA": "avillarreal@delti.com.mx",
    "emailB": "",
    "geoState": "15",
    "latitud": "19.6221614",
    "longitud":"-99.20404719999999"
  },
  {
    "idStore": "33",
    "name": "DISTRIBUIDORA DE LIBROS GOGA",
    "address": "Barranca Dos núm. 12, Col. Valle Dorado Chamapa, 53690, Naucalpan, Edo. de Méx.",
    "phoneA": "(55) 53-01-68-35",
    "phoneB": "",
    "website": "",
    "emailA": "angeles-5520@hotmail.com",
    "emailB": "",
    "geoState": "15",
    "latitud": "19.4505497",
    "longitud":"-99.26209289999997"
  },
  {
    "idStore": "34",
    "name": "LONDON BOOKSTORE S.A DE C.V.",
    "address": "Ignacio Allende núm. 909-B, Col. Francisco Murguía, 50130, Toluca, Edo. de Méx.",
    "phoneA": "(722) 216-45-65",
    "phoneB": "",
    "website": "",
    "emailA": "londonmetepec@prodigy.net.mx",
    "emailB": "",
    "geoState": "15",
    "latitud": "19.2790896",
    "longitud":"-99.65550990000003"
  },
  {
    "idStore": "35",
    "name": "MEETING POINT BOOK SHOP NORTE",
    "address": "Vía Morelos Km.20.5 Local-7 Col. San José Jajalpa, 55090, \u2028Ecatepec de Morelos, Edo. de Méx.",
    "phoneA": "(55) 51-16-37-64",
    "phoneB": "",
    "website": "",
    "emailA": "mpbcompras@meetingpoint.com.mx",
    "emailB": "servicioaclientes@meetingpoint.com.mx",
    "geoState": "15",
    "latitud": "19.5876991",
    "longitud":"-99.03983399999998"
  },
  {
    "idStore": "36",
    "name": "LIBRERÍA HIDALGO",
    "address": "Lago de Camécuaro núm. 690, Col. Ventura Puente, 58020, Morelia, Mich.",
    "phoneA": "(443) 317-20-26",
    "phoneB": "",
    "website": "www.libreriashidalgo.com.mx",
    "emailA": "iceniceros@libreriashidalgo.com.mx",
    "emailB": "",
    "geoState": "16",
    "latitud": "19.6902258",
    "longitud":"-101.18453169999998"
  },
  {
    "idStore": "37",
    "name": "ROSENDO ALFONSO MARTÍNEZ CHÁVEZ",
    "address": "2da. Privada Diagonal de Aldama núm. 13, Col. Tamacua, 60090, Uruapan, Mich. ",
    "phoneA": "(452) 523-17-53",
    "phoneB": "(452) 149-18-23",
    "website": "",
    "emailA": "rosendomartinezsantillana@prodigy.net.mx",
    "emailB": "",
    "geoState": "16",
    "latitud": "19.4087292",
    "longitud":"-102.0615818"
  },
  {
    "idStore": "38",
    "name": "LIBRERÍA SEMBRADORA DE LIBROS",
    "address": "Blvd. Tepic-Xalisco núm. 97-D, Col. Caja de Agua, 63158, Tepic, Nay.",
    "phoneA": "(311) 119-19-15",
    "phoneB": "(311) 133-06-65",
    "website": "",
    "emailA": "sembradora_libros@hotmail.com",
    "emailB": "",
    "geoState": "18",
    "latitud": "21.4960741",
    "longitud":"-104.89687800000002"
  },
  {
    "idStore": "39",
    "name": "DILSE",
    "address": "Castelar núm. 23, Col. Independencia, 64720, Monterrey, N. L. ",
    "phoneA": "(81) 81-90-15-97",
    "phoneB": "",
    "website": "",
    "emailA": "enlance_karlarredondo@hotmail.com",
    "emailB": "",
    "geoState": "19",
    "latitud": "25.6604372",
    "longitud":"-100.33276169999999"
  },
  {
    "idStore": "40",
    "name": "DITEXA BOOKSTORE, S.A. DE C.V.",
    "address": "Nueva Jersey núm. 4335, Col. Res. Abraham Lincoln, 64310, Monterrey, N. L.",
    "phoneA": "(81) 83-11-85-39",
    "phoneB": "(81) 83-11-85-40",
    "website": "www.ditexa.com",
    "emailA": "ditexa@prodigy.net.mx",
    "emailB": "",
    "geoState": "19",
    "latitud": "25.7172966",
    "longitud":"-100.35687280000002"
  },
  {
    "idStore": "41",
    "name": "EDIMSA",
    "address": "Morelos núm. 437, Col. Centro,64000, Monterrey, N. L.",
    "phoneA": "(81) 83-40-11-64",
    "phoneB": "(81) 83-43-80-30",
    "website": "www.edimsa.com.mx",
    "emailA": "informes@edimsa.com.mx",
    "emailB": "",
    "geoState": "19",
    "latitud": "25.7193619",
    "longitud":"-100.3502459"
  },
  {
    "idStore": "42",
    "name": "PROVEEDORA ESCOLAR ",
    "address": "Independencia núm. 1001, Col. Centro, 68000, Oaxaca de Juárez, Oax.",
    "phoneA": "(951) 501-85-00",
    "phoneB": "(951) 501-52-17",
    "website": "www.proveedora-escolar.com.mx",
    "emailA": "juanjoseproveedora@gmail.com",
    "emailB": "",
    "geoState": "20",
    "latitud": "17.1193283",
    "longitud":"-96.7525488"
  },
  {
    "idStore": "43",
    "name": "LIBRERÍA BRITÁNICA",
    "address": "Av. 25 Pte. núm. 1705, Locales A y B, Col. Volcanes, 72410, Puebla, Pue.",
    "phoneA": "(222) 296-73-37",
    "phoneB": "(222) 296-73-38",
    "website": "www.libreriabritanica.com",
    "emailA": "libreriabritanica@prodigy.net.mx",
    "emailB": "",
    "geoState": "21",
    "latitud": "19.0420739",
    "longitud":"-98.21719669999999"
  },
  {
    "idStore": "44",
    "name": "ROCÍO JAIMEZ DISTRIBUIDOR",
    "address": "Carlos Pacheco núm. 34, Col. Héroes de Puebla, 72520, Puebla, Pue.",
    "phoneA": "(222) 236-87-67",
    "phoneB": "(222) 235-78-27",
    "website": "",
    "emailA": "rociojaimez@hotmail.com",
    "emailB": "",
    "geoState": "21",
    "latitud": "19.0206747",
    "longitud":"-98.17991769999998"
  },
  {
    "idStore": "45",
    "name": "TEXTOS Y TENTACIONES LITERARIAS",
    "address": "3 Poniente núm. 719-B, Col. Centro, 72000, Puebla, Pue.",
    "phoneA": "(222) 298-23-66",
    "phoneB": "",
    "website": "",
    "emailA": "textosytentacionesliterarias@gmail.com",
    "emailB": "",
    "geoState": "21",
    "latitud": "19.0461708",
    "longitud":"-98.20410319999996"
  },
  {
    "idStore": "46",
    "name": "CASI DISTRIBUIDORA",
    "address": "Av. Canadá núm. 244, Plaza de las Américas Col. Carretas, 76050, Querétaro, Qro.",
    "phoneA": "(442) 248-37-81",
    "phoneB": "(442) 142-59-85",
    "website": "",
    "emailA": "je57_cabrera@hotmail.com",
    "emailB": "",
    "geoState": "22",
    "latitud": "20.5878716",
    "longitud":"-100.3746165"
  },
  {
    "idStore": "47",
    "name": "LIBRERIA ENGLISH SERVICES",
    "address": "Francisco I. Madero núm 301 Poniente, Col. Niños Héroes,76010, Querétaro, Qro.",
    "phoneA": "(442) 216-65-60",
    "phoneB": "",
    "website": "",
    "emailA": "english.services@cdq-libros.com",
    "emailB": "",
    "geoState": "22",
    "latitud": "20.5894453",
    "longitud":"-100.41015870000001"
  },
  {
    "idStore": "48",
    "name": "PROVESA",
    "address": "Miguel Ángel de Quevedo núm. 17, Local J Plaza Zeus, Col. Jardines de la Hacienda,76180, Querétaro, Qro",
    "phoneA": "(442) 195-53-69",
    "phoneB": "(442) 195-56-23",
    "website": "",
    "emailA": "pedidosweb@provesa.mx",
    "emailB": "",
    "geoState": "22",
    "latitud": "20.5745579",
    "longitud":"-100.4129676"
  },
  {
    "idStore": "49",
    "name": "JOSÉ ALEJANDRINO LEAL MARTÍNEZ",
    "address": "Av. De las Torres SM 505 Mza 6 Lote 3, 77500, Cancún, Q. Roo",
    "phoneA": "(998) 848-22-53",
    "phoneB": "",
    "website": "",
    "emailA": "libreriaalbatros@hotmail.com",
    "emailB": "",
    "geoState": "23",
    "latitud": "21.1295466",
    "longitud":"-86.81701320000002"
  },
  {
    "idStore": "50",
    "name": "LIBRERÍA Y PAPELERÍA EL RECREO",
    "address": "Av. Héroes núm. 273 esquina Camelias, Col. Adolfo López Mateos, 77010, Chetumal, Q. Roo",
    "phoneA": "(983) 285-34-38",
    "phoneB": "",
    "website": "",
    "emailA": "sicavi34@hotmail.com",
    "emailB": "lib.pape.elrecreo@gmail.com",
    "geoState": "23",
    "latitud": "18.5059802",
    "longitud":"-88.3108277"
  },
  {
    "idStore": "51",
    "name": "THE ENGLISH CORNER",
    "address": "Tatanacho núm. 245, Col. Jardines del Estadio, 78280, San Luis Potosí, S.L.P.",
    "phoneA": "(444) 833-14-00",
    "phoneB": "(444) 8137153",
    "website": "",
    "emailA": "almacen.eltslp@hotmail.com",
    "emailB": "elt_slp@hotmail.com",
    "geoState": "24",
    "latitud": "22.14196",
    "longitud":"-100.99246929999998"
  },
  {
    "idStore": "52",
    "name": "DISTRIBUIDORA JAVEL",
    "address": "Av. del Océano núm. 1602, Col. Residencial Azaleas, 80058, Culiacán, Sin.",
    "phoneA": "(667) 257-04-51",
    "phoneB": "(667) 150-55-87",
    "website": "",
    "emailA": "veronica.javel@hotmail.com",
    "emailB": "",
    "geoState": "25",
    "latitud": "24.8200898",
    "longitud":"-107.43663190000001"
  },
  {
    "idStore": "53",
    "name": "LIBRERÍAS MÉXICO DEL PACÍFICO S.A. DE C.V. ",
    "address": "Álvaro Obregón núm. 433 Sur esq. Juan Jose Ríos, Col. Jorge Almada, 80200, Culiacán, Sin.",
    "phoneA": "(667) 712-85-56",
    "phoneB": "(667) 716-36-85",
    "website": "",
    "emailA": "libreriasmexico@hotmail.com",
    "emailB": "roxdiaziribe@gmail.com",
    "geoState": "25",
    "latitud": "24.798493",
    "longitud":"-107.40114590000002"
  },
  {
    "idStore": "54",
    "name": "DELTI",
    "address": "Blvd. Navarrete núm. 80-B, Col. Valle Escondido, 83207, Hermosillo, Son.",
    "phoneA": "(662) 213-77-33",
    "phoneB": "",
    "website": "www.delti.com.mx",
    "emailA": "pvillanueva@delti.com.mx",
    "emailB": "",
    "geoState": "26",
    "latitud": "29.08565",
    "longitud":"-110.9695716"
  },
  {
    "idStore": "55",
    "name": "LIBRERÍA NOROESTE",
    "address": "Luis Donaldo Colosio y Matamoros, Edif. Fer Loc. 12, Col. Centro, 83000 Hermosillo, Son.",
    "phoneA": "(662) 217-19-89",
    "phoneB": "(662) 212-29-86",
    "website": "",
    "emailA": "librerianoroeste@hotmail.com",
    "emailB": "",
    "geoState": "26",
    "latitud": "29.0834457",
    "longitud":"-110.953644"
  },
  {
    "idStore": "56",
    "name": "LIBROMEX",
    "address": "5 de Febrero núm. 14, Col. 5 de Mayo, 83010, Hermosillo, Son.",
    "phoneA": "(662) 212-65-25",
    "phoneB": "(662) 212-65-26",
    "website": "",
    "emailA": "karlaleon@libromex.com.mx",
    "emailB": "",
    "geoState": "26",
    "latitud": "29.0892291",
    "longitud":"-110.9438055"
  },
  {
    "idStore": "57",
    "name": "JUAN JOSÉ GUERRERO TAPIA",
    "address": "Venustiano Carranza núm. 1209, Col. Centro, 86000, Villahermosa, Tab.",
    "phoneA": "(993) 315-65-97",
    "phoneB": "",
    "website": "",
    "emailA": "librosintegrales@hotmail.com",
    "emailB": "librosintegralesfacturas@hotmail.com ",
    "geoState": "27",
    "latitud": "17.9869076",
    "longitud":"-92.93632309999998"
  },
  {
    "idStore": "58",
    "name": "GRUPO LYPRO, S. DE R.L. DE C.V.",
    "address": "Blvd. Manuel Cavazos Lerma núm 203, Col. Euzkadi, 87370, Nuevo Laredo, Tamps.",
    "phoneA": "(868) 819-26-06",
    "phoneB": "",
    "website": "www.lypro.com.mx",
    "emailA": "servicioaclientes_libros@lypro.com.mx",
    "emailB": "",
    "geoState": "28",
    "latitud": "25.8427979",
    "longitud":"-97.49543299999999"
  },
  {
    "idStore": "59",
    "name": "LIBRERÍA COSMOS",
    "address": "Plaza Palmas 7 y 8, Col.Petrolera, 89110, Tampico, Tamps.",
    "phoneA": "(833) 217-64-30",
    "phoneB": "",
    "website": "www.libreriacosmos.com",
    "emailA": "ventas@libreriacosmos.com",
    "emailB": "",
    "geoState": "28",
    "latitud": "22.2364393",
    "longitud":"-97.8689147"
  },
  {
    "idStore": "60",
    "name": "LIBROS Y TEXTOS EN ACCIÓN",
    "address": "Jesús Luna Luna Norte núm. 304, Col. Luna Luna, C.P. 89514, CD. Madero, Tamps.",
    "phoneA": "(833) 361-37-99",
    "phoneB": "",
    "website": "",
    "emailA": "dlt_litea@yahoo.com.mx",
    "emailB": "",
    "geoState": "28",
    "latitud": "22.2923514",
    "longitud":"-97.84427490000002"
  },
  {
    "idStore": "61",
    "name": "LIBRERÍA CIENTÍFICA",
    "address": "20 de Noviembre núm. 717, Col. Flores Magón, C.P. 91900, Veracruz, Ver.",
    "phoneA": "(229) 932-90-53",
    "phoneB": "",
    "website": "",
    "emailA": "escolar@libcientifica.com",
    "emailB": "",
    "geoState": "30",
    "latitud": "19.1914151",
    "longitud":"-96.12751750000001"
  },
  {
    "idStore": "62",
    "name": "LIBRERÍA VIRGO",
    "address": "Calle 8 norte S/N, Edificio Juárez PB, Col. Obrera, C.P. 93260, Poza Rica, Ver",
    "phoneA": "(782) 823-21-46",
    "phoneB": "",
    "website": "www.libreriavirgo.com.mx",
    "emailA": "libreriavirgo@hotmail.com",
    "emailB": "",
    "geoState": "30",
    "latitud": "20.5271822",
    "longitud":"-97.4600734"
  },
  {
    "idStore": "63",
    "name": "LIBRERÍA Y PAPELERÍA DEL MAESTRO",
    "address": "Ejército Mexicano núm. 10, Col. Centro, 96700, Minatitlán, Ver.",
    "phoneA": "(922) 223-20-48",
    "phoneB": "",
    "website": "",
    "emailA": "librería.del.maestro@gmail.com",
    "emailB": "",
    "geoState": "30",
    "latitud": "17.9877691",
    "longitud":"-94.54707459999997"
  },
  {
    "idStore": "64",
    "name": "LIBRERÍA LONDRES",
    "address": "Calle 62 núm. 295-C X 29 y Cúpules, Col. Alcalá Martín, 97050, Mérida, Yuc.",
    "phoneA": "(999) 920-24-34 ",
    "phoneB": "(999) 925-61-47",
    "website": "",
    "emailA": "",
    "emailB": "",
    "geoState": "31",
    "latitud": "20.9906527",
    "longitud":"-89.62221009999996"
  },
  {
    "idStore": "65",
    "name": "DISTRIBUIDORA LAS COLINAS",
    "address": "Colina del Ángel núm. 213, Col. Las Colinas 98098, Zacatecas, Zac.",
    "phoneA": "(492) 922-60-22",
    "phoneB": "",
    "website": "",
    "emailA": "elquijote.zac@hotmail.es",
    "emailB": "",
    "geoState": "32",
    "latitud": "22.7599078",
    "longitud":"-102.54779989999997"
  }
]
